#Date: 2016-09-10
$GPRMC,222610.101,V,3728.136,N,12207.481,W,0.00,0.00,100916,,*0D


$GPGGA,222610.101,3728.136,N,12207.481,W,1,08,0.9,270.026,M,0.0,M,,*7A
$GPRMC,222611.093,V,3728.150,N,12207.496,W,0.00,0.00,100916,,*00
$GPGGA,222611.093,3728.150,N,12207.496,W,1,08,0.9,271.340,M,0.0,M,,*75
$GPRMC,222612.087,V,3728.165,N,12207.512,W,0.00,0.00,100916,,*0D
$GPGGA,222612.087,3728.165,N,12207.512,W,1,08,0.9,272.975,M,0.0,M,,*77
$GPRMC,222613.065,V,3728.179,N,12207.528,W,0.00,0.00,100916,,*04
$GPGGA,222613.065,3728.179,N,12207.528,W,1,08,0.9,275.006,M,0.0,M,,*74
$GPRMC,222614.087,V,3728.193,N,12207.545,W,0.00,0.00,100916,,*00
$GPGGA,222614.087,3728.193,N,12207.545,W,1,08,0.9,276.018,M,0.0,M,,*7C
$GPRMC,222615.089,V,3728.207,N,12207.565,W,0.00,0.00,100916,,*03
$GPGGA,222615.089,3728.207,N,12207.565,W,1,08,0.9,277.499,M,0.0,M,,*73
$GPRMC,222616.082,V,3728.222,N,12207.582,W,0.00,0.00,100916,,*05
$GPGGA,222616.082,3728.222,N,12207.582,W,1,08,0.9,278.851,M,0.0,M,,*72
$GPRMC,222617.097,V,3728.238,N,12207.601,W,0.00,0.00,100916,,*03
$GPGGA,222617.097,3728.238,N,12207.601,W,1,08,0.9,280.117,M,0.0,M,,*78
$GPRMC,222618.068,V,3728.253,N,12207.618,W,0.00,0.00,100916,,*09
$GPGGA,222618.068,3728.253,N,12207.618,W,1,08,0.9,281.166,M,0.0,M,,*75
$GPRMC,222619.084,V,3728.269,N,12207.635,W,0.00,0.00,100916,,*0C
$GPGGA,222619.084,3728.269,N,12207.635,W,1,08,0.9,282.645,M,0.0,M,,*75
$GPRMC,222620.063,V,3728.285,N,12207.652,W,0.00,0.00,100916,,*0C
$GPGGA,222620.063,3728.285,N,12207.652,W,1,08,0.9,284.658,M,0.0,M,,*7F
$GPRMC,222621.084,V,3728.301,N,12207.668,W,0.00,0.00,100916,,*00
$GPGGA,222621.084,3728.301,N,12207.668,W,1,08,0.9,286.477,M,0.0,M,,*7E
$GPRMC,222622.085,V,3728.318,N,12207.672,W,0.00,0.00,100916,,*01
$GPGGA,222622.085,3728.318,N,12207.672,W,1,08,0.9,288.832,M,0.0,M,,*7C
$GPRMC,222623.091,V,3728.326,N,12207.675,W,0.00,0.00,100916,,*0F
$GPGGA,222623.091,3728.326,N,12207.675,W,1,08,0.9,290.001,M,0.0,M,,*73
$GPRMC,222624.087,V,3728.334,N,12207.675,W,0.00,0.00,100916,,*0C
$GPGGA,222624.087,3728.334,N,12207.675,W,1,08,0.9,292.092,M,0.0,M,,*78
$GPRMC,222625.084,V,3728.366,N,12207.737,W,0.00,0.00,100916,,*0E
$GPGGA,222625.084,3728.366,N,12207.737,W,1,08,0.9,293.653,M,0.0,M,,*70
$GPRMC,222626.084,V,3728.382,N,12207.754,W,0.00,0.00,100916,,*02
$GPGGA,222626.084,3728.382,N,12207.754,W,1,08,0.9,295.261,M,0.0,M,,*7F
$GPRMC,222627.072,V,3728.399,N,12207.771,W,0.00,0.00,100916,,*07
$GPGGA,222627.072,3728.399,N,12207.771,W,1,08,0.9,297.178,M,0.0,M,,*73
$GPRMC,222628.053,V,3728.416,N,12207.788,W,0.00,0.00,100916,,*0D
$GPGGA,222628.053,3728.416,N,12207.788,W,1,08,0.9,297.931,M,0.0,M,,*7C
$GPRMC,222629.090,V,3728.433,N,12207.806,W,0.00,0.00,100916,,*0D
$GPGGA,222629.090,3728.433,N,12207.806,W,1,08,0.9,297.734,M,0.0,M,,*77
$GPRMC,222630.094,V,3728.450,N,12207.824,W,0.00,0.00,100916,,*04
$GPGGA,222630.094,3728.450,N,12207.824,W,1,08,0.9,296.874,M,0.0,M,,*74
$GPRMC,222631.103,V,3728.468,N,12207.843,W,0.00,0.00,100916,,*00
$GPGGA,222631.103,3728.468,N,12207.843,W,1,08,0.9,296.953,M,0.0,M,,*74
$GPRMC,222632.092,V,3728.485,N,12207.861,W,0.00,0.00,100916,,*09
$GPGGA,222632.092,3728.485,N,12207.861,W,1,08,0.9,297.018,M,0.0,M,,*7A
$GPRMC,222633.084,V,3728.503,N,12207.879,W,0.00,0.00,100916,,*09
$GPGGA,222633.084,3728.503,N,12207.879,W,1,08,0.9,296.108,M,0.0,M,,*7B
$GPRMC,222634.085,V,3728.519,N,12207.898,W,0.00,0.00,100916,,*0B
$GPGGA,222634.085,3728.519,N,12207.898,W,1,08,0.9,296.048,M,0.0,M,,*7C
$GPRMC,222635.085,V,3728.537,N,12207.916,W,0.00,0.00,100916,,*01
$GPGGA,222635.085,3728.537,N,12207.916,W,1,08,0.9,297.943,M,0.0,M,,*75
$GPRMC,222636.087,V,3728.554,N,12207.934,W,0.00,0.00,100916,,*05
$GPGGA,222636.087,3728.554,N,12207.934,W,1,08,0.9,299.924,M,0.0,M,,*7E
$GPRMC,222637.088,V,3728.571,N,12207.952,W,0.00,0.00,100916,,*0C
$GPGGA,222637.088,3728.571,N,12207.952,W,1,08,0.9,301.977,M,0.0,M,,*71
$GPRMC,222638.088,V,3728.588,N,12207.971,W,0.00,0.00,100916,,*04
$GPGGA,222638.088,3728.588,N,12207.971,W,1,08,0.9,303.661,M,0.0,M,,*73
$GPRMC,222639.088,V,3728.605,N,12207.990,W,0.00,0.00,100916,,*0C
$GPGGA,222639.088,3728.605,N,12207.990,W,1,08,0.9,304.935,M,0.0,M,,*72
$GPRMC,222640.085,V,3728.623,N,12208.008,W,0.00,0.00,100916,,*0C
$GPGGA,222640.085,3728.623,N,12208.008,W,1,08,0.9,306.730,M,0.0,M,,*7B
$GPRMC,222641.083,V,3728.639,N,12208.024,W,0.00,0.00,100916,,*0E
$GPGGA,222641.083,3728.639,N,12208.024,W,1,08,0.9,308.679,M,0.0,M,,*7B
$GPRMC,222642.065,V,3728.657,N,12208.043,W,0.00,0.00,100916,,*0C
$GPGGA,222642.065,3728.657,N,12208.043,W,1,08,0.9,309.934,M,0.0,M,,*7E
$GPRMC,222643.085,V,3728.674,N,12208.062,W,0.00,0.00,100916,,*01
$GPGGA,222643.085,3728.674,N,12208.062,W,1,08,0.9,311.289,M,0.0,M,,*77
$GPRMC,222644.086,V,3728.692,N,12208.081,W,0.00,0.00,100916,,*00
$GPGGA,222644.086,3728.692,N,12208.081,W,1,08,0.9,312.831,M,0.0,M,,*7C
$GPRMC,222645.084,V,3728.709,N,12208.100,W,0.00,0.00,100916,,*08
$GPGGA,222645.084,3728.709,N,12208.100,W,1,08,0.9,314.187,M,0.0,M,,*76
$GPRMC,222646.087,V,3728.726,N,12208.119,W,0.00,0.00,100916,,*0D
$GPGGA,222646.087,3728.726,N,12208.119,W,1,08,0.9,315.696,M,0.0,M,,*75
$GPRMC,222647.060,V,3728.743,N,12208.139,W,0.00,0.00,100916,,*04
$GPGGA,222647.060,3728.743,N,12208.139,W,1,08,0.9,316.113,M,0.0,M,,*75
$GPRMC,222648.090,V,3728.760,N,12208.159,W,0.00,0.00,100916,,*03
$GPGGA,222648.090,3728.760,N,12208.159,W,1,08,0.9,316.180,M,0.0,M,,*78
$GPRMC,222649.087,V,3728.777,N,12208.179,W,0.00,0.00,100916,,*00
$GPGGA,222649.087,3728.777,N,12208.179,W,1,08,0.9,316.151,M,0.0,M,,*77
$GPRMC,222650.090,V,3728.795,N,12208.199,W,0.00,0.00,100916,,*0C
$GPGGA,222650.090,3728.795,N,12208.199,W,1,08,0.9,316.088,M,0.0,M,,*7E
$GPRMC,222651.060,V,3728.813,N,12208.219,W,0.00,0.00,100916,,*08
$GPGGA,222651.060,3728.813,N,12208.219,W,1,08,0.9,316.069,M,0.0,M,,*75
$GPRMC,222652.088,V,3728.830,N,12208.240,W,0.00,0.00,100916,,*00
$GPGGA,222652.088,3728.830,N,12208.240,W,1,08,0.9,316.769,M,0.0,M,,*7A
$GPRMC,222653.052,V,3728.848,N,12208.260,W,0.00,0.00,100916,,*0B
$GPGGA,222653.052,3728.848,N,12208.260,W,1,08,0.9,317.621,M,0.0,M,,*7D
$GPRMC,222654.092,V,3728.865,N,12208.281,W,0.00,0.00,100916,,*00
$GPGGA,222654.092,3728.865,N,12208.281,W,1,08,0.9,318.357,M,0.0,M,,*7D
$GPRMC,222655.090,V,3728.882,N,12208.302,W,0.00,0.00,100916,,*00
$GPGGA,222655.090,3728.882,N,12208.302,W,1,08,0.9,319.823,M,0.0,M,,*74
$GPRMC,222656.089,V,3728.900,N,12208.322,W,0.00,0.00,100916,,*02
$GPGGA,222656.089,3728.900,N,12208.322,W,1,08,0.9,320.553,M,0.0,M,,*76
$GPRMC,222657.072,V,3728.917,N,12208.343,W,0.00,0.00,100916,,*06
$GPGGA,222657.072,3728.917,N,12208.343,W,1,08,0.9,321.810,M,0.0,M,,*79
$GPRMC,222658.069,V,3728.934,N,12208.363,W,0.00,0.00,100916,,*00
$GPGGA,222658.069,3728.934,N,12208.363,W,1,08,0.9,323.237,M,0.0,M,,*72
$GPRMC,222659.090,V,3728.952,N,12208.384,W,0.00,0.00,100916,,*0E
$GPGGA,222659.090,3728.952,N,12208.384,W,1,08,0.9,324.493,M,0.0,M,,*73
$GPRMC,222700.065,V,3728.969,N,12208.404,W,0.00,0.00,100916,,*0E
$GPGGA,222700.065,3728.969,N,12208.404,W,1,08,0.9,325.778,M,0.0,M,,*74
$GPRMC,222701.063,V,3728.986,N,12208.424,W,0.00,0.00,100916,,*0A
$GPGGA,222701.063,3728.986,N,12208.424,W,1,08,0.9,327.239,M,0.0,M,,*72
$GPRMC,222702.070,V,3729.003,N,12208.444,W,0.00,0.00,100916,,*08
$GPGGA,222702.070,3729.003,N,12208.444,W,1,08,0.9,329.749,M,0.0,M,,*7C
$GPRMC,222703.063,V,3729.019,N,12208.465,W,0.00,0.00,100916,,*03
$GPGGA,222703.063,3729.019,N,12208.465,W,1,08,0.9,331.409,M,0.0,M,,*79
$GPRMC,222704.066,V,3729.036,N,12208.485,W,0.00,0.00,100916,,*02
$GPGGA,222704.066,3729.036,N,12208.485,W,1,08,0.9,332.888,M,0.0,M,,*7E
$GPRMC,222705.056,V,3729.053,N,12208.506,W,0.00,0.00,100916,,*09
$GPGGA,222705.056,3729.053,N,12208.506,W,1,08,0.9,334.104,M,0.0,M,,*7E
$GPRMC,222706.057,V,3729.069,N,12208.526,W,0.00,0.00,100916,,*00
$GPGGA,222706.057,3729.069,N,12208.526,W,1,08,0.9,335.163,M,0.0,M,,*77
$GPRMC,222707.092,V,3729.086,N,12208.546,W,0.00,0.00,100916,,*0F
$GPGGA,222707.092,3729.086,N,12208.546,W,1,08,0.9,335.884,M,0.0,M,,*78
$GPRMC,222708.087,V,3729.103,N,12208.567,W,0.00,0.00,100916,,*0B
$GPGGA,222708.087,3729.103,N,12208.567,W,1,08,0.9,336.475,M,0.0,M,,*7D
$GPRMC,222709.068,V,3729.121,N,12208.588,W,0.00,0.00,100916,,*0A
$GPGGA,222709.068,3729.121,N,12208.588,W,1,08,0.9,337.204,M,0.0,M,,*7D
$GPRMC,222710.067,V,3729.138,N,12208.609,W,0.00,0.00,100916,,*0F
$GPGGA,222710.067,3729.138,N,12208.609,W,1,08,0.9,337.204,M,0.0,M,,*78
$GPRMC,222711.075,V,3729.155,N,12208.629,W,0.00,0.00,100916,,*04
$GPGGA,222711.075,3729.155,N,12208.629,W,1,08,0.9,335.958,M,0.0,M,,*73
$GPRMC,222712.069,V,3729.172,N,12208.650,W,0.00,0.00,100916,,*01
$GPGGA,222712.069,3729.172,N,12208.650,W,1,08,0.9,335.454,M,0.0,M,,*77
$GPRMC,222713.081,V,3729.189,N,12208.671,W,0.00,0.00,100916,,*01
$GPGGA,222713.081,3729.189,N,12208.671,W,1,08,0.9,335.454,M,0.0,M,,*77
$GPRMC,222714.094,V,3729.206,N,12208.692,W,0.00,0.00,100916,,*0B
$GPGGA,222714.094,3729.206,N,12208.692,W,1,08,0.9,335.741,M,0.0,M,,*7A
$GPRMC,222715.089,V,3729.223,N,12208.712,W,0.00,0.00,100916,,*08
$GPGGA,222715.089,3729.223,N,12208.712,W,1,08,0.9,336.774,M,0.0,M,,*7C
$GPRMC,222716.111,V,3729.239,N,12208.733,W,0.00,0.00,100916,,*03
$GPGGA,222716.111,3729.239,N,12208.733,W,1,08,0.9,337.865,M,0.0,M,,*79
$GPRMC,222717.070,V,3729.255,N,12208.754,W,0.00,0.00,100916,,*0F
$GPGGA,222717.070,3729.255,N,12208.754,W,1,08,0.9,338.593,M,0.0,M,,*7E
$GPRMC,222718.072,V,3729.271,N,12208.774,W,0.00,0.00,100916,,*06
$GPGGA,222718.072,3729.271,N,12208.774,W,1,08,0.9,339.125,M,0.0,M,,*7F
$GPRMC,222719.075,V,3729.287,N,12208.795,W,0.00,0.00,100916,,*06
$GPGGA,222719.075,3729.287,N,12208.795,W,1,08,0.9,339.676,M,0.0,M,,*7E
$GPRMC,222720.068,V,3729.302,N,12208.815,W,0.00,0.00,100916,,*0B
$GPGGA,222720.068,3729.302,N,12208.815,W,1,08,0.9,340.421,M,0.0,M,,*7D
$GPRMC,222721.075,V,3729.318,N,12208.835,W,0.00,0.00,100916,,*0F
$GPGGA,222721.075,3729.318,N,12208.835,W,1,08,0.9,341.256,M,0.0,M,,*7E
$GPRMC,222722.073,V,3729.334,N,12208.855,W,0.00,0.00,100916,,*02
$GPGGA,222722.073,3729.334,N,12208.855,W,1,08,0.9,341.779,M,0.0,M,,*7B
$GPRMC,222723.068,V,3729.349,N,12208.875,W,0.00,0.00,100916,,*01
$GPGGA,222723.068,3729.349,N,12208.875,W,1,08,0.9,342.361,M,0.0,M,,*76
$GPRMC,222724.078,V,3729.364,N,12208.895,W,0.00,0.00,100916,,*06
$GPGGA,222724.078,3729.364,N,12208.895,W,1,08,0.9,343.329,M,0.0,M,,*7C
$GPRMC,222725.064,V,3729.380,N,12208.915,W,0.00,0.00,100916,,*09
$GPGGA,222725.064,3729.380,N,12208.915,W,1,08,0.9,343.824,M,0.0,M,,*75
$GPRMC,222726.074,V,3729.396,N,12208.934,W,0.00,0.00,100916,,*0F
$GPGGA,222726.074,3729.396,N,12208.934,W,1,08,0.9,344.798,M,0.0,M,,*7C
$GPRMC,222727.068,V,3729.412,N,12208.952,W,0.00,0.00,100916,,*08
$GPGGA,222727.068,3729.412,N,12208.952,W,1,08,0.9,345.741,M,0.0,M,,*7E
$GPRMC,222728.071,V,3729.430,N,12208.969,W,0.00,0.00,100916,,*07
$GPGGA,222728.071,3729.430,N,12208.969,W,1,08,0.9,346.715,M,0.0,M,,*73
$GPRMC,222729.064,V,3729.448,N,12208.985,W,0.00,0.00,100916,,*0F
$GPGGA,222729.064,3729.448,N,12208.985,W,1,08,0.9,347.133,M,0.0,M,,*78
$GPRMC,222730.068,V,3729.467,N,12208.997,W,0.00,0.00,100916,,*05
$GPGGA,222730.068,3729.467,N,12208.997,W,1,08,0.9,348.510,M,0.0,M,,*78
$GPRMC,222731.062,V,3729.488,N,12209.007,W,0.00,0.00,100916,,*0E
$GPGGA,222731.062,3729.488,N,12209.007,W,1,08,0.9,349.841,M,0.0,M,,*7B
$GPRMC,222732.067,V,3729.509,N,12209.014,W,0.00,0.00,100916,,*02
$GPGGA,222732.067,3729.509,N,12209.014,W,1,08,0.9,350.890,M,0.0,M,,*73
$GPRMC,222733.067,V,3729.531,N,12209.016,W,0.00,0.00,100916,,*0A
$GPGGA,222733.067,3729.531,N,12209.016,W,1,08,0.9,352.770,M,0.0,M,,*78
$GPRMC,222734.070,V,3729.552,N,12209.016,W,0.00,0.00,100916,,*0E
$GPGGA,222734.070,3729.552,N,12209.016,W,1,08,0.9,354.822,M,0.0,M,,*72
$GPRMC,222735.061,V,3729.573,N,12209.013,W,0.00,0.00,100916,,*09
$GPGGA,222735.061,3729.573,N,12209.013,W,1,08,0.9,356.287,M,0.0,M,,*72
$GPRMC,222736.067,V,3729.594,N,12209.007,W,0.00,0.00,100916,,*00
$GPGGA,222736.067,3729.594,N,12209.007,W,1,08,0.9,357.802,M,0.0,M,,*7D
$GPRMC,222737.067,V,3729.615,N,12208.998,W,0.00,0.00,100916,,*05
$GPGGA,222737.067,3729.615,N,12208.998,W,1,08,0.9,359.186,M,0.0,M,,*73
$GPRMC,222738.073,V,3729.636,N,12208.987,W,0.00,0.00,100916,,*00
$GPGGA,222738.073,3729.636,N,12208.987,W,1,08,0.9,359.610,M,0.0,M,,*7E
$GPRMC,222739.068,V,3729.656,N,12208.974,W,0.00,0.00,100916,,*01
$GPGGA,222739.068,3729.656,N,12208.974,W,1,08,0.9,359.218,M,0.0,M,,*73
$GPRMC,222740.091,V,3729.676,N,12208.958,W,0.00,0.00,100916,,*05
$GPGGA,222740.091,3729.676,N,12208.958,W,1,08,0.9,358.400,M,0.0,M,,*79
$GPRMC,222741.072,V,3729.695,N,12208.940,W,0.00,0.00,100916,,*0D
$GPGGA,222741.072,3729.695,N,12208.940,W,1,08,0.9,357.340,M,0.0,M,,*7D
$GPRMC,222742.074,V,3729.713,N,12208.921,W,0.00,0.00,100916,,*00
$GPGGA,222742.074,3729.713,N,12208.921,W,1,08,0.9,356.155,M,0.0,M,,*77
$GPRMC,222743.070,V,3729.731,N,12208.901,W,0.00,0.00,100916,,*07
$GPGGA,222743.070,3729.731,N,12208.901,W,1,08,0.9,355.160,M,0.0,M,,*75
$GPRMC,222744.057,V,3729.748,N,12208.879,W,0.00,0.00,100916,,*05
$GPGGA,222744.057,3729.748,N,12208.879,W,1,08,0.9,354.444,M,0.0,M,,*75
$GPRMC,222745.072,V,3729.766,N,12208.856,W,0.00,0.00,100916,,*02
$GPGGA,222745.072,3729.766,N,12208.856,W,1,08,0.9,353.745,M,0.0,M,,*77
$GPRMC,222746.084,V,3729.782,N,12208.833,W,0.00,0.00,100916,,*01
$GPGGA,222746.084,3729.782,N,12208.833,W,1,08,0.9,352.894,M,0.0,M,,*76
$GPRMC,222747.069,V,3729.799,N,12208.809,W,0.00,0.00,100916,,*00
$GPGGA,222747.069,3729.799,N,12208.809,W,1,08,0.9,352.501,M,0.0,M,,*76
$GPRMC,222748.094,V,3729.816,N,12208.785,W,0.00,0.00,100916,,*0E
$GPGGA,222748.094,3729.816,N,12208.785,W,1,08,0.9,351.583,M,0.0,M,,*71
$GPRMC,222749.079,V,3729.833,N,12208.761,W,0.00,0.00,100916,,*01
$GPGGA,222749.079,3729.833,N,12208.761,W,1,08,0.9,349.863,M,0.0,M,,*74
$GPRMC,222750.081,V,3729.849,N,12208.736,W,0.00,0.00,100916,,*01
$GPGGA,222750.081,3729.849,N,12208.736,W,1,08,0.9,348.807,M,0.0,M,,*77
$GPRMC,222751.073,V,3729.864,N,12208.710,W,0.00,0.00,100916,,*06
$GPGGA,222751.073,3729.864,N,12208.710,W,1,08,0.9,346.951,M,0.0,M,,*7C
$GPRMC,222752.093,V,3729.880,N,12208.684,W,0.00,0.00,100916,,*0D
$GPGGA,222752.093,3729.880,N,12208.684,W,1,08,0.9,346.456,M,0.0,M,,*7D
$GPRMC,222753.130,V,3729.896,N,12208.657,W,0.00,0.00,100916,,*0D
$GPGGA,222753.130,3729.896,N,12208.657,W,1,08,0.9,346.218,M,0.0,M,,*71
$GPRMC,222754.079,V,3729.912,N,12208.631,W,0.00,0.00,100916,,*0B
$GPGGA,222754.079,3729.912,N,12208.631,W,1,08,0.9,346.149,M,0.0,M,,*70
$GPRMC,222755.079,V,3729.927,N,12208.605,W,0.00,0.00,100916,,*0B
$GPGGA,222755.079,3729.927,N,12208.605,W,1,08,0.9,346.433,M,0.0,M,,*78
$GPRMC,222756.082,V,3729.942,N,12208.577,W,0.00,0.00,100916,,*09
$GPGGA,222756.082,3729.942,N,12208.577,W,1,08,0.9,346.889,M,0.0,M,,*77
$GPRMC,222757.081,V,3729.957,N,12208.550,W,0.00,0.00,100916,,*0A
$GPGGA,222757.081,3729.957,N,12208.550,W,1,08,0.9,347.210,M,0.0,M,,*7F
$GPRMC,222758.081,V,3729.972,N,12208.524,W,0.00,0.00,100916,,*01
$GPGGA,222758.081,3729.972,N,12208.524,W,1,08,0.9,347.716,M,0.0,M,,*77
$GPRMC,222759.110,V,3729.987,N,12208.498,W,0.00,0.00,100916,,*05
$GPGGA,222759.110,3729.987,N,12208.498,W,1,08,0.9,347.774,M,0.0,M,,*77
$GPRMC,222800.143,V,3730.002,N,12208.470,W,0.00,0.00,100916,,*0A
$GPGGA,222800.143,3730.002,N,12208.470,W,1,08,0.9,348.308,M,0.0,M,,*78
$GPRMC,222801.106,V,3730.018,N,12208.442,W,0.00,0.00,100916,,*00
$GPGGA,222801.106,3730.018,N,12208.442,W,1,08,0.9,348.551,M,0.0,M,,*78
$GPRMC,222802.069,V,3730.033,N,12208.414,W,0.00,0.00,100916,,*01
$GPGGA,222802.069,3730.033,N,12208.414,W,1,08,0.9,348.419,M,0.0,M,,*74
$GPRMC,222803.067,V,3730.048,N,12208.386,W,0.00,0.00,100916,,*0E
$GPGGA,222803.067,3730.048,N,12208.386,W,1,08,0.9,348.979,M,0.0,M,,*70
$GPRMC,222804.054,V,3730.063,N,12208.359,W,0.00,0.00,100916,,*02
$GPGGA,222804.054,3730.063,N,12208.359,W,1,08,0.9,348.972,M,0.0,M,,*77
$GPRMC,222805.050,V,3730.079,N,12208.332,W,0.00,0.00,100916,,*01
$GPGGA,222805.050,3730.079,N,12208.332,W,1,08,0.9,349.069,M,0.0,M,,*76
$GPRMC,222806.060,V,3730.095,N,12208.304,W,0.00,0.00,100916,,*06
$GPGGA,222806.060,3730.095,N,12208.304,W,1,08,0.9,349.056,M,0.0,M,,*7D
$GPRMC,222807.060,V,3730.111,N,12208.277,W,0.00,0.00,100916,,*0F
$GPGGA,222807.060,3730.111,N,12208.277,W,1,08,0.9,348.357,M,0.0,M,,*77
$GPRMC,222808.064,V,3730.127,N,12208.249,W,0.00,0.00,100916,,*0C
$GPGGA,222808.064,3730.127,N,12208.249,W,1,08,0.9,348.166,M,0.0,M,,*74
$GPRMC,222809.071,V,3730.143,N,12208.222,W,0.00,0.00,100916,,*06
$GPGGA,222809.071,3730.143,N,12208.222,W,1,08,0.9,347.764,M,0.0,M,,*75
$GPRMC,222810.075,V,3730.160,N,12208.195,W,0.00,0.00,100916,,*04
$GPGGA,222810.075,3730.160,N,12208.195,W,1,08,0.9,347.170,M,0.0,M,,*74
$GPRMC,222811.071,V,3730.177,N,12208.167,W,0.00,0.00,100916,,*0A
$GPGGA,222811.071,3730.177,N,12208.167,W,1,08,0.9,346.668,M,0.0,M,,*75
$GPRMC,222812.064,V,3730.194,N,12208.140,W,0.00,0.00,100916,,*05
$GPGGA,222812.064,3730.194,N,12208.140,W,1,08,0.9,346.247,M,0.0,M,,*73
$GPRMC,222813.083,V,3730.209,N,12208.112,W,0.00,0.00,100916,,*0D
$GPGGA,222813.083,3730.209,N,12208.112,W,1,08,0.9,346.084,M,0.0,M,,*76
$GPRMC,222814.083,V,3730.226,N,12208.085,W,0.00,0.00,100916,,*08
$GPGGA,222814.083,3730.226,N,12208.085,W,1,08,0.9,345.364,M,0.0,M,,*7D
$GPRMC,222815.080,V,3730.243,N,12208.056,W,0.00,0.00,100916,,*07
$GPGGA,222815.080,3730.243,N,12208.056,W,1,08,0.9,344.228,M,0.0,M,,*7A
$GPRMC,222816.058,V,3730.260,N,12208.028,W,0.00,0.00,100916,,*09
$GPGGA,222816.058,3730.260,N,12208.028,W,1,08,0.9,342.955,M,0.0,M,,*73
$GPRMC,222817.072,V,3730.276,N,12207.999,W,0.00,0.00,100916,,*0B
$GPGGA,222817.072,3730.276,N,12207.999,W,1,08,0.9,342.241,M,0.0,M,,*7F
$GPRMC,222818.070,V,3730.294,N,12207.971,W,0.00,0.00,100916,,*0C
$GPGGA,222818.070,3730.294,N,12207.971,W,1,08,0.9,341.735,M,0.0,M,,*7D
$GPRMC,222819.064,V,3730.311,N,12207.943,W,0.00,0.00,100916,,*05
$GPGGA,222819.064,3730.311,N,12207.943,W,1,08,0.9,341.646,M,0.0,M,,*71
$GPRMC,222820.069,V,3730.328,N,12207.914,W,0.00,0.00,100916,,*0A
$GPGGA,222820.069,3730.328,N,12207.914,W,1,08,0.9,341.010,M,0.0,M,,*7B
$GPRMC,222821.060,V,3730.345,N,12207.886,W,0.00,0.00,100916,,*03
$GPGGA,222821.060,3730.345,N,12207.886,W,1,08,0.9,340.757,M,0.0,M,,*77
$GPRMC,222822.081,V,3730.361,N,12207.858,W,0.00,0.00,100916,,*0A
$GPGGA,222822.081,3730.361,N,12207.858,W,1,08,0.9,340.838,M,0.0,M,,*78
$GPRMC,222823.085,V,3730.378,N,12207.830,W,0.00,0.00,100916,,*09
$GPGGA,222823.085,3730.378,N,12207.830,W,1,08,0.9,340.548,M,0.0,M,,*71
$GPRMC,222824.073,V,3730.395,N,12207.802,W,0.00,0.00,100916,,*05
$GPGGA,222824.073,3730.395,N,12207.802,W,1,08,0.9,340.794,M,0.0,M,,*7E
$GPRMC,222825.072,V,3730.411,N,12207.774,W,0.00,0.00,100916,,*00
$GPGGA,222825.072,3730.411,N,12207.774,W,1,08,0.9,341.403,M,0.0,M,,*77
$GPRMC,222826.075,V,3730.427,N,12207.747,W,0.00,0.00,100916,,*01
$GPGGA,222826.075,3730.427,N,12207.747,W,1,08,0.9,341.737,M,0.0,M,,*72
$GPRMC,222827.064,V,3730.443,N,12207.720,W,0.00,0.00,100916,,*03
$GPGGA,222827.064,3730.443,N,12207.720,W,1,08,0.9,342.471,M,0.0,M,,*72
$GPRMC,222828.085,V,3730.460,N,12207.692,W,0.00,0.00,100916,,*0A
$GPGGA,222828.085,3730.460,N,12207.692,W,1,08,0.9,342.444,M,0.0,M,,*7D
$GPRMC,222829.067,V,3730.477,N,12207.665,W,0.00,0.00,100916,,*09
$GPGGA,222829.067,3730.477,N,12207.665,W,1,08,0.9,342.366,M,0.0,M,,*79
$GPRMC,222830.071,V,3730.494,N,12207.638,W,0.00,0.00,100916,,*03
$GPGGA,222830.071,3730.494,N,12207.638,W,1,08,0.9,342.591,M,0.0,M,,*7D
$GPRMC,222831.069,V,3730.511,N,12207.611,W,0.00,0.00,100916,,*0C
$GPGGA,222831.069,3730.511,N,12207.611,W,1,08,0.9,342.364,M,0.0,M,,*7E
$GPRMC,222832.061,V,3730.528,N,12207.584,W,0.00,0.00,100916,,*02
$GPGGA,222832.061,3730.528,N,12207.584,W,1,08,0.9,342.146,M,0.0,M,,*72
$GPRMC,222833.075,V,3730.545,N,12207.557,W,0.00,0.00,100916,,*03
$GPGGA,222833.075,3730.545,N,12207.557,W,1,08,0.9,343.335,M,0.0,M,,*74
$GPRMC,222834.071,V,3730.562,N,12207.531,W,0.00,0.00,100916,,*05
$GPGGA,222834.071,3730.562,N,12207.531,W,1,08,0.9,343.803,M,0.0,M,,*7C
$GPRMC,222835.066,V,3730.579,N,12207.504,W,0.00,0.00,100916,,*0E
$GPGGA,222835.066,3730.579,N,12207.504,W,1,08,0.9,344.671,M,0.0,M,,*7B
$GPRMC,222836.069,V,3730.596,N,12207.478,W,0.00,0.00,100916,,*09
$GPGGA,222836.069,3730.596,N,12207.478,W,1,08,0.9,345.772,M,0.0,M,,*7F
$GPRMC,222837.071,V,3730.614,N,12207.452,W,0.00,0.00,100916,,*00
$GPGGA,222837.071,3730.614,N,12207.452,W,1,08,0.9,346.703,M,0.0,M,,*73
$GPRMC,222838.061,V,3730.630,N,12207.426,W,0.00,0.00,100916,,*0B
$GPGGA,222838.061,3730.630,N,12207.426,W,1,08,0.9,347.196,M,0.0,M,,*73
$GPRMC,222839.072,V,3730.648,N,12207.401,W,0.00,0.00,100916,,*02
$GPGGA,222839.072,3730.648,N,12207.401,W,1,08,0.9,348.056,M,0.0,M,,*78
$GPRMC,222840.071,V,3730.666,N,12207.375,W,0.00,0.00,100916,,*07
$GPGGA,222840.071,3730.666,N,12207.375,W,1,08,0.9,348.601,M,0.0,M,,*79
$GPRMC,222841.069,V,3730.683,N,12207.350,W,0.00,0.00,100916,,*03
$GPGGA,222841.069,3730.683,N,12207.350,W,1,08,0.9,349.242,M,0.0,M,,*7F
$GPRMC,222842.072,V,3730.700,N,12207.325,W,0.00,0.00,100916,,*02
$GPGGA,222842.072,3730.700,N,12207.325,W,1,08,0.9,350.001,M,0.0,M,,*73
$GPRMC,222843.068,V,3730.717,N,12207.300,W,0.00,0.00,100916,,*09
$GPGGA,222843.068,3730.717,N,12207.300,W,1,08,0.9,350.696,M,0.0,M,,*70
$GPRMC,222844.074,V,3730.734,N,12207.275,W,0.00,0.00,100916,,*01
$GPGGA,222844.074,3730.734,N,12207.275,W,1,08,0.9,351.691,M,0.0,M,,*7E
$GPRMC,222845.080,V,3730.751,N,12207.251,W,0.00,0.00,100916,,*0E
$GPGGA,222845.080,3730.751,N,12207.251,W,1,08,0.9,351.956,M,0.0,M,,*75
$GPRMC,222846.058,V,3730.768,N,12207.226,W,0.00,0.00,100916,,*02
$GPGGA,222846.058,3730.768,N,12207.226,W,1,08,0.9,352.431,M,0.0,M,,*76
$GPRMC,222847.059,V,3730.784,N,12207.201,W,0.00,0.00,100916,,*05
$GPGGA,222847.059,3730.784,N,12207.201,W,1,08,0.9,353.256,M,0.0,M,,*77
$GPRMC,222848.067,V,3730.802,N,12207.176,W,0.00,0.00,100916,,*05
$GPGGA,222848.067,3730.802,N,12207.176,W,1,08,0.9,354.300,M,0.0,M,,*72
$GPRMC,222849.070,V,3730.819,N,12207.153,W,0.00,0.00,100916,,*0F
$GPGGA,222849.070,3730.819,N,12207.153,W,1,08,0.9,355.246,M,0.0,M,,*7A
$GPRMC,222850.070,V,3730.835,N,12207.129,W,0.00,0.00,100916,,*04
$GPGGA,222850.070,3730.835,N,12207.129,W,1,08,0.9,356.056,M,0.0,M,,*71
$GPRMC,222851.072,V,3730.853,N,12207.105,W,0.00,0.00,100916,,*09
$GPGGA,222851.072,3730.853,N,12207.105,W,1,08,0.9,356.557,M,0.0,M,,*78
$GPRMC,222852.072,V,3730.870,N,12207.079,W,0.00,0.00,100916,,*01
$GPGGA,222852.072,3730.870,N,12207.079,W,1,08,0.9,355.994,M,0.0,M,,*70
$GPRMC,222853.071,V,3730.887,N,12207.056,W,0.00,0.00,100916,,*06
$GPGGA,222853.071,3730.887,N,12207.056,W,1,08,0.9,356.282,M,0.0,M,,*78
$GPRMC,222854.078,V,3730.904,N,12207.030,W,0.00,0.00,100916,,*02
$GPGGA,222854.078,3730.904,N,12207.030,W,1,08,0.9,356.622,M,0.0,M,,*72
$GPRMC,222855.072,V,3730.920,N,12207.005,W,0.00,0.00,100916,,*09
$GPGGA,222855.072,3730.920,N,12207.005,W,1,08,0.9,357.389,M,0.0,M,,*7C
$GPRMC,222856.070,V,3730.937,N,12206.981,W,0.00,0.00,100916,,*0A
$GPGGA,222856.070,3730.937,N,12206.981,W,1,08,0.9,358.147,M,0.0,M,,*70
$GPRMC,222857.073,V,3730.954,N,12206.957,W,0.00,0.00,100916,,*06
$GPGGA,222857.073,3730.954,N,12206.957,W,1,08,0.9,358.741,M,0.0,M,,*7C
$GPRMC,222858.088,V,3730.971,N,12206.933,W,0.00,0.00,100916,,*08
$GPGGA,222858.088,3730.971,N,12206.933,W,1,08,0.9,359.512,M,0.0,M,,*77
$GPRMC,222859.072,V,3730.988,N,12206.909,W,0.00,0.00,100916,,*03
$GPGGA,222859.072,3730.988,N,12206.909,W,1,08,0.9,360.492,M,0.0,M,,*7F
$GPRMC,222900.074,V,3731.005,N,12206.884,W,0.00,0.00,100916,,*01
$GPGGA,222900.074,3731.005,N,12206.884,W,1,08,0.9,361.208,M,0.0,M,,*79
$GPRMC,222901.073,V,3731.021,N,12206.860,W,0.00,0.00,100916,,*0B
$GPGGA,222901.073,3731.021,N,12206.860,W,1,08,0.9,361.411,M,0.0,M,,*7D
$GPRMC,222902.069,V,3731.039,N,12206.836,W,0.00,0.00,100916,,*09
$GPGGA,222902.069,3731.039,N,12206.836,W,1,08,0.9,362.155,M,0.0,M,,*79
$GPRMC,222903.072,V,3731.055,N,12206.812,W,0.00,0.00,100916,,*0E
$GPGGA,222903.072,3731.055,N,12206.812,W,1,08,0.9,362.708,M,0.0,M,,*70
$GPRMC,222904.074,V,3731.073,N,12206.788,W,0.00,0.00,100916,,*07
$GPGGA,222904.074,3731.073,N,12206.788,W,1,08,0.9,363.512,M,0.0,M,,*71
$GPRMC,222905.074,V,3731.090,N,12206.764,W,0.00,0.00,100916,,*09
$GPGGA,222905.074,3731.090,N,12206.764,W,1,08,0.9,364.445,M,0.0,M,,*7B
$GPRMC,222906.077,V,3731.107,N,12206.740,W,0.00,0.00,100916,,*00
$GPGGA,222906.077,3731.107,N,12206.740,W,1,08,0.9,365.123,M,0.0,M,,*76
$GPRMC,222907.073,V,3731.125,N,12206.717,W,0.00,0.00,100916,,*07
$GPGGA,222907.073,3731.125,N,12206.717,W,1,08,0.9,364.919,M,0.0,M,,*71
$GPRMC,222908.088,V,3731.142,N,12206.692,W,0.00,0.00,100916,,*01
$GPGGA,222908.088,3731.142,N,12206.692,W,1,08,0.9,364.679,M,0.0,M,,*7E
$GPRMC,222909.083,V,3731.159,N,12206.667,W,0.00,0.00,100916,,*0B
$GPGGA,222909.083,3731.159,N,12206.667,W,1,08,0.9,364.067,M,0.0,M,,*7D
$GPRMC,222910.076,V,3731.177,N,12206.642,W,0.00,0.00,100916,,*02
$GPGGA,222910.076,3731.177,N,12206.642,W,1,08,0.9,363.292,M,0.0,M,,*7B
$GPRMC,222911.075,V,3731.195,N,12206.617,W,0.00,0.00,100916,,*0C
$GPGGA,222911.075,3731.195,N,12206.617,W,1,08,0.9,362.681,M,0.0,M,,*72
$GPRMC,222912.072,V,3731.213,N,12206.592,W,0.00,0.00,100916,,*0B
$GPGGA,222912.072,3731.213,N,12206.592,W,1,08,0.9,362.226,M,0.0,M,,*7C
$GPRMC,222913.075,V,3731.231,N,12206.567,W,0.00,0.00,100916,,*07
$GPGGA,222913.075,3731.231,N,12206.567,W,1,08,0.9,361.922,M,0.0,M,,*7C
$GPRMC,222914.089,V,3731.249,N,12206.542,W,0.00,0.00,100916,,*0B
$GPGGA,222914.089,3731.249,N,12206.542,W,1,08,0.9,361.680,M,0.0,M,,*77
$GPRMC,222915.073,V,3731.266,N,12206.517,W,0.00,0.00,100916,,*02
$GPGGA,222915.073,3731.266,N,12206.517,W,1,08,0.9,361.686,M,0.0,M,,*78
$GPRMC,222916.091,V,3731.285,N,12206.493,W,0.00,0.00,100916,,*0D
$GPGGA,222916.091,3731.285,N,12206.493,W,1,08,0.9,361.781,M,0.0,M,,*71
$GPRMC,222917.074,V,3731.302,N,12206.468,W,0.00,0.00,100916,,*0D
$GPGGA,222917.074,3731.302,N,12206.468,W,1,08,0.9,361.597,M,0.0,M,,*74
$GPRMC,222918.075,V,3731.321,N,12206.444,W,0.00,0.00,100916,,*0C
$GPGGA,222918.075,3731.321,N,12206.444,W,1,08,0.9,361.627,M,0.0,M,,*7D
$GPRMC,222919.075,V,3731.339,N,12206.419,W,0.00,0.00,100916,,*0C
$GPGGA,222919.075,3731.339,N,12206.419,W,1,08,0.9,361.839,M,0.0,M,,*7C
$GPRMC,222920.079,V,3731.358,N,12206.395,W,0.00,0.00,100916,,*0E
$GPGGA,222920.079,3731.358,N,12206.395,W,1,08,0.9,361.911,M,0.0,M,,*75
$GPRMC,222921.105,V,3731.377,N,12206.370,W,0.00,0.00,100916,,*03
$GPGGA,222921.105,3731.377,N,12206.370,W,1,08,0.9,361.739,M,0.0,M,,*7C
$GPRMC,222922.096,V,3731.395,N,12206.345,W,0.00,0.00,100916,,*01
$GPGGA,222922.096,3731.395,N,12206.345,W,1,08,0.9,361.563,M,0.0,M,,*73
$GPRMC,222923.072,V,3731.414,N,12206.320,W,0.00,0.00,100916,,*07
$GPGGA,222923.072,3731.414,N,12206.320,W,1,08,0.9,360.818,M,0.0,M,,*75
$GPRMC,222924.100,V,3731.431,N,12206.295,W,0.00,0.00,100916,,*0C
$GPGGA,222924.100,3731.431,N,12206.295,W,1,08,0.9,360.615,M,0.0,M,,*7D
$GPRMC,222925.067,V,3731.450,N,12206.270,W,0.00,0.00,100916,,*01
$GPGGA,222925.067,3731.450,N,12206.270,W,1,08,0.9,360.863,M,0.0,M,,*7F
$GPRMC,222926.076,V,3731.469,N,12206.245,W,0.00,0.00,100916,,*0E
$GPGGA,222926.076,3731.469,N,12206.245,W,1,08,0.9,361.036,M,0.0,M,,*79
$GPRMC,222927.076,V,3731.487,N,12206.220,W,0.00,0.00,100916,,*0C
$GPGGA,222927.076,3731.487,N,12206.220,W,1,08,0.9,361.102,M,0.0,M,,*7D
$GPRMC,222928.076,V,3731.505,N,12206.196,W,0.00,0.00,100916,,*06
$GPGGA,222928.076,3731.505,N,12206.196,W,1,08,0.9,361.257,M,0.0,M,,*74
$GPRMC,222929.073,V,3731.523,N,12206.171,W,0.00,0.00,100916,,*0F
$GPGGA,222929.073,3731.523,N,12206.171,W,1,08,0.9,361.455,M,0.0,M,,*79
$GPRMC,222930.072,V,3731.542,N,12206.146,W,0.00,0.00,100916,,*05
$GPGGA,222930.072,3731.542,N,12206.146,W,1,08,0.9,361.047,M,0.0,M,,*74
$GPRMC,222931.243,V,3731.560,N,12206.121,W,0.00,0.00,100916,,*05
$GPGGA,222931.243,3731.560,N,12206.121,W,1,08,0.9,360.963,M,0.0,M,,*7A
$GPRMC,222932.075,V,3731.578,N,12206.095,W,0.00,0.00,100916,,*06
$GPGGA,222932.075,3731.578,N,12206.095,W,1,08,0.9,360.402,M,0.0,M,,*73
$GPRMC,222933.060,V,3731.597,N,12206.070,W,0.00,0.00,100916,,*09
$GPGGA,222933.060,3731.597,N,12206.070,W,1,08,0.9,359.984,M,0.0,M,,*75
$GPRMC,222934.063,V,3731.615,N,12206.045,W,0.00,0.00,100916,,*02
$GPGGA,222934.063,3731.615,N,12206.045,W,1,08,0.9,359.166,M,0.0,M,,*7A
$GPRMC,222935.064,V,3731.633,N,12206.019,W,0.00,0.00,100916,,*09
$GPGGA,222935.064,3731.633,N,12206.019,W,1,08,0.9,358.654,M,0.0,M,,*76
$GPRMC,222936.066,V,3731.652,N,12205.994,W,0.00,0.00,100916,,*00
$GPGGA,222936.066,3731.652,N,12205.994,W,1,08,0.9,358.106,M,0.0,M,,*7F
$GPRMC,222937.080,V,3731.670,N,12205.969,W,0.00,0.00,100916,,*0B
$GPGGA,222937.080,3731.670,N,12205.969,W,1,08,0.9,358.082,M,0.0,M,,*79
$GPRMC,222938.112,V,3731.689,N,12205.944,W,0.00,0.00,100916,,*07
$GPGGA,222938.112,3731.689,N,12205.944,W,1,08,0.9,357.971,M,0.0,M,,*7F
$GPRMC,222939.082,V,3731.708,N,12205.919,W,0.00,0.00,100916,,*0E
$GPGGA,222939.082,3731.708,N,12205.919,W,1,08,0.9,357.158,M,0.0,M,,*75
$GPRMC,222940.064,V,3731.726,N,12205.894,W,0.00,0.00,100916,,*00
$GPGGA,222940.064,3731.726,N,12205.894,W,1,08,0.9,356.885,M,0.0,M,,*73
$GPRMC,222941.066,V,3731.745,N,12205.869,W,0.00,0.00,100916,,*04
$GPGGA,222941.066,3731.745,N,12205.869,W,1,08,0.9,356.978,M,0.0,M,,*74
$GPRMC,222942.063,V,3731.763,N,12205.844,W,0.00,0.00,100916,,*09
$GPGGA,222942.063,3731.763,N,12205.844,W,1,08,0.9,357.101,M,0.0,M,,*7E
$GPRMC,222943.064,V,3731.782,N,12205.818,W,0.00,0.00,100916,,*09
$GPGGA,222943.064,3731.782,N,12205.818,W,1,08,0.9,356.538,M,0.0,M,,*71
$GPRMC,222944.082,V,3731.800,N,12205.793,W,0.00,0.00,100916,,*0F
$GPGGA,222944.082,3731.800,N,12205.793,W,1,08,0.9,356.663,M,0.0,M,,*7A
$GPRMC,222945.083,V,3731.819,N,12205.768,W,0.00,0.00,100916,,*03
$GPGGA,222945.083,3731.819,N,12205.768,W,1,08,0.9,356.323,M,0.0,M,,*77
$GPRMC,222946.074,V,3731.838,N,12205.744,W,0.00,0.00,100916,,*05
$GPGGA,222946.074,3731.838,N,12205.744,W,1,08,0.9,355.265,M,0.0,M,,*71
$GPRMC,222947.072,V,3731.857,N,12205.719,W,0.00,0.00,100916,,*03
$GPGGA,222947.072,3731.857,N,12205.719,W,1,08,0.9,354.045,M,0.0,M,,*76
$GPRMC,222948.072,V,3731.876,N,12205.694,W,0.00,0.00,100916,,*0B
$GPGGA,222948.072,3731.876,N,12205.694,W,1,08,0.9,353.270,M,0.0,M,,*7D
$GPRMC,222949.067,V,3731.895,N,12205.669,W,0.00,0.00,100916,,*01
$GPGGA,222949.067,3731.895,N,12205.669,W,1,08,0.9,352.465,M,0.0,M,,*74
$GPRMC,222950.068,V,3731.914,N,12205.644,W,0.00,0.00,100916,,*01
$GPGGA,222950.068,3731.914,N,12205.644,W,1,08,0.9,351.606,M,0.0,M,,*70
$GPRMC,222951.080,V,3731.932,N,12205.619,W,0.00,0.00,100916,,*0A
$GPGGA,222951.080,3731.932,N,12205.619,W,1,08,0.9,350.504,M,0.0,M,,*7B
$GPRMC,222952.065,V,3731.951,N,12205.593,W,0.00,0.00,100916,,*06
$GPGGA,222952.065,3731.951,N,12205.593,W,1,08,0.9,350.475,M,0.0,M,,*70
$GPRMC,222953.067,V,3731.969,N,12205.568,W,0.00,0.00,100916,,*0A
$GPGGA,222953.067,3731.969,N,12205.568,W,1,08,0.9,350.128,M,0.0,M,,*71
$GPRMC,222954.067,V,3731.987,N,12205.543,W,0.00,0.00,100916,,*04
$GPGGA,222954.067,3731.987,N,12205.543,W,1,08,0.9,349.898,M,0.0,M,,*75
$GPRMC,222955.083,V,3732.006,N,12205.518,W,0.00,0.00,100916,,*02
$GPGGA,222955.083,3732.006,N,12205.518,W,1,08,0.9,350.687,M,0.0,M,,*7B
$GPRMC,222956.067,V,3732.024,N,12205.492,W,0.00,0.00,100916,,*08
$GPGGA,222956.067,3732.024,N,12205.492,W,1,08,0.9,350.564,M,0.0,M,,*7F
$GPRMC,222957.064,V,3732.041,N,12205.468,W,0.00,0.00,100916,,*0C
$GPGGA,222957.064,3732.041,N,12205.468,W,1,08,0.9,351.034,M,0.0,M,,*7A
$GPRMC,222958.065,V,3732.059,N,12205.443,W,0.00,0.00,100916,,*02
$GPGGA,222958.065,3732.059,N,12205.443,W,1,08,0.9,351.681,M,0.0,M,,*7C
$GPRMC,222959.063,V,3732.077,N,12205.417,W,0.00,0.00,100916,,*08
$GPGGA,222959.063,3732.077,N,12205.417,W,1,08,0.9,351.872,M,0.0,M,,*74
$GPRMC,223000.066,V,3732.095,N,12205.393,W,0.00,0.00,100916,,*0E
$GPGGA,223000.066,3732.095,N,12205.393,W,1,08,0.9,352.687,M,0.0,M,,*75
$GPRMC,223001.082,V,3732.113,N,12205.368,W,0.00,0.00,100916,,*0E
$GPGGA,223001.082,3732.113,N,12205.368,W,1,08,0.9,352.845,M,0.0,M,,*75
$GPRMC,223002.065,V,3732.131,N,12205.343,W,0.00,0.00,100916,,*0D
$GPGGA,223002.065,3732.131,N,12205.343,W,1,08,0.9,352.550,M,0.0,M,,*7F
$GPRMC,223003.066,V,3732.149,N,12205.317,W,0.00,0.00,100916,,*01
$GPGGA,223003.066,3732.149,N,12205.317,W,1,08,0.9,351.662,M,0.0,M,,*72
$GPRMC,223004.084,V,3732.167,N,12205.292,W,0.00,0.00,100916,,*0A
$GPGGA,223004.084,3732.167,N,12205.292,W,1,08,0.9,351.065,M,0.0,M,,*78
$GPRMC,223005.064,V,3732.185,N,12205.266,W,0.00,0.00,100916,,*02
$GPGGA,223005.064,3732.185,N,12205.266,W,1,08,0.9,349.920,M,0.0,M,,*71
$GPRMC,223006.064,V,3732.203,N,12205.240,W,0.00,0.00,100916,,*08
$GPGGA,223006.064,3732.203,N,12205.240,W,1,08,0.9,349.206,M,0.0,M,,*74
$GPRMC,223007.063,V,3732.221,N,12205.214,W,0.00,0.00,100916,,*0F
$GPGGA,223007.063,3732.221,N,12205.214,W,1,08,0.9,348.533,M,0.0,M,,*73
$GPRMC,223008.070,V,3732.239,N,12205.188,W,0.00,0.00,100916,,*0D
$GPGGA,223008.070,3732.239,N,12205.188,W,1,08,0.9,347.790,M,0.0,M,,*75
$GPRMC,223009.065,V,3732.257,N,12205.162,W,0.00,0.00,100916,,*04
$GPGGA,223009.065,3732.257,N,12205.162,W,1,08,0.9,346.789,M,0.0,M,,*75
$GPRMC,223010.102,V,3732.275,N,12205.136,W,0.00,0.00,100916,,*0D
$GPGGA,223010.102,3732.275,N,12205.136,W,1,08,0.9,345.925,M,0.0,M,,*77
$GPRMC,223011.076,V,3732.294,N,12205.110,W,0.00,0.00,100916,,*05
$GPGGA,223011.076,3732.294,N,12205.110,W,1,08,0.9,344.871,M,0.0,M,,*7E
$GPRMC,223012.067,V,3732.312,N,12205.084,W,0.00,0.00,100916,,*05
$GPGGA,223012.067,3732.312,N,12205.084,W,1,08,0.9,343.933,M,0.0,M,,*7E
$GPRMC,223013.082,V,3732.331,N,12205.058,W,0.00,0.00,100916,,*0F
$GPGGA,223013.082,3732.331,N,12205.058,W,1,08,0.9,343.305,M,0.0,M,,*7B
$GPRMC,223014.065,V,3732.350,N,12205.032,W,0.00,0.00,100916,,*0A
$GPGGA,223014.065,3732.350,N,12205.032,W,1,08,0.9,342.381,M,0.0,M,,*73
$GPRMC,223015.067,V,3732.369,N,12205.007,W,0.00,0.00,100916,,*05
$GPGGA,223015.067,3732.369,N,12205.007,W,1,08,0.9,342.041,M,0.0,M,,*73
$GPRMC,223016.068,V,3732.387,N,12204.981,W,0.00,0.00,100916,,*0F
$GPGGA,223016.068,3732.387,N,12204.981,W,1,08,0.9,341.571,M,0.0,M,,*7C
$GPRMC,223017.081,V,3732.406,N,12204.956,W,0.00,0.00,100916,,*0D
$GPGGA,223017.081,3732.406,N,12204.956,W,1,08,0.9,340.822,M,0.0,M,,*74
$GPRMC,223018.111,V,3732.425,N,12204.931,W,0.00,0.00,100916,,*0A
$GPGGA,223018.111,3732.425,N,12204.931,W,1,08,0.9,340.237,M,0.0,M,,*7D
$GPRMC,223019.065,V,3732.444,N,12204.906,W,0.00,0.00,100916,,*0A
$GPGGA,223019.065,3732.444,N,12204.906,W,1,08,0.9,339.470,M,0.0,M,,*76
$GPRMC,223020.085,V,3732.463,N,12204.880,W,0.00,0.00,100916,,*04
$GPGGA,223020.085,3732.463,N,12204.880,W,1,08,0.9,339.169,M,0.0,M,,*75
$GPRMC,223021.066,V,3732.482,N,12204.855,W,0.00,0.00,100916,,*0F
$GPGGA,223021.066,3732.482,N,12204.855,W,1,08,0.9,338.479,M,0.0,M,,*7B
$GPRMC,223022.063,V,3732.500,N,12204.829,W,0.00,0.00,100916,,*09
$GPGGA,223022.063,3732.500,N,12204.829,W,1,08,0.9,337.885,M,0.0,M,,*7D
$GPRMC,223023.070,V,3732.519,N,12204.802,W,0.00,0.00,100916,,*0B
$GPGGA,223023.070,3732.519,N,12204.802,W,1,08,0.9,337.356,M,0.0,M,,*7A
$GPRMC,223024.075,V,3732.536,N,12204.776,W,0.00,0.00,100916,,*08
$GPGGA,223024.075,3732.536,N,12204.776,W,1,08,0.9,336.467,M,0.0,M,,*7D
$GPRMC,223025.069,V,3732.554,N,12204.748,W,0.00,0.00,100916,,*0D
$GPGGA,223025.069,3732.554,N,12204.748,W,1,08,0.9,335.460,M,0.0,M,,*7C
$GPRMC,223026.072,V,3732.570,N,12204.720,W,0.00,0.00,100916,,*0C
$GPGGA,223026.072,3732.570,N,12204.720,W,1,08,0.9,335.085,M,0.0,M,,*72
$GPRMC,223027.065,V,3732.587,N,12204.692,W,0.00,0.00,100916,,*0B
$GPGGA,223027.065,3732.587,N,12204.692,W,1,08,0.9,334.338,M,0.0,M,,*71
$GPRMC,223028.082,V,3732.603,N,12204.663,W,0.00,0.00,100916,,*0C
$GPGGA,223028.082,3732.603,N,12204.663,W,1,08,0.9,333.485,M,0.0,M,,*70
$GPRMC,223029.071,V,3732.618,N,12204.633,W,0.00,0.00,100916,,*0E
$GPGGA,223029.071,3732.618,N,12204.633,W,1,08,0.9,332.541,M,0.0,M,,*7A
$GPRMC,223030.065,V,3732.633,N,12204.603,W,0.00,0.00,100916,,*09
$GPGGA,223030.065,3732.633,N,12204.603,W,1,08,0.9,331.964,M,0.0,M,,*75
$GPRMC,223031.066,V,3732.647,N,12204.573,W,0.00,0.00,100916,,*0C
$GPGGA,223031.066,3732.647,N,12204.573,W,1,08,0.9,331.652,M,0.0,M,,*7A
$GPRMC,223032.087,V,3732.661,N,12204.543,W,0.00,0.00,100916,,*07
$GPGGA,223032.087,3732.661,N,12204.543,W,1,08,0.9,331.496,M,0.0,M,,*7B
$GPRMC,223033.150,V,3732.674,N,12204.512,W,0.00,0.00,100916,,*0D
$GPGGA,223033.150,3732.674,N,12204.512,W,1,08,0.9,331.286,M,0.0,M,,*76
$GPRMC,223034.119,V,3732.687,N,12204.481,W,0.00,0.00,100916,,*00
$GPGGA,223034.119,3732.687,N,12204.481,W,1,08,0.9,331.716,M,0.0,M,,*77
$GPRMC,223035.074,V,3732.699,N,12204.450,W,0.00,0.00,100916,,*08
$GPGGA,223035.074,3732.699,N,12204.450,W,1,08,0.9,331.733,M,0.0,M,,*78
$GPRMC,223036.092,V,3732.710,N,12204.418,W,0.00,0.00,100916,,*0F
$GPGGA,223036.092,3732.710,N,12204.418,W,1,08,0.9,331.460,M,0.0,M,,*7A
$GPRMC,223037.104,V,3732.721,N,12204.386,W,0.00,0.00,100916,,*02
$GPGGA,223037.104,3732.721,N,12204.386,W,1,08,0.9,331.452,M,0.0,M,,*76
$GPRMC,223038.074,V,3732.731,N,12204.354,W,0.00,0.00,100916,,*05
$GPGGA,223038.074,3732.731,N,12204.354,W,1,08,0.9,331.212,M,0.0,M,,*73
$GPRMC,223039.064,V,3732.740,N,12204.321,W,0.00,0.00,100916,,*01
$GPGGA,223039.064,3732.740,N,12204.321,W,1,08,0.9,330.954,M,0.0,M,,*7F
$GPRMC,223040.067,V,3732.748,N,12204.288,W,0.00,0.00,100916,,*06
$GPGGA,223040.067,3732.748,N,12204.288,W,1,08,0.9,330.909,M,0.0,M,,*70
$GPRMC,223041.068,V,3732.755,N,12204.255,W,0.00,0.00,100916,,*04
$GPGGA,223041.068,3732.755,N,12204.255,W,1,08,0.9,331.166,M,0.0,M,,*72
$GPRMC,223042.072,V,3732.763,N,12204.221,W,0.00,0.00,100916,,*0A
$GPGGA,223042.072,3732.763,N,12204.221,W,1,08,0.9,331.465,M,0.0,M,,*7A
$GPRMC,223043.072,V,3732.769,N,12204.188,W,0.00,0.00,100916,,*01
$GPGGA,223043.072,3732.769,N,12204.188,W,1,08,0.9,331.957,M,0.0,M,,*7D
$GPRMC,223044.064,V,3732.776,N,12204.155,W,0.00,0.00,100916,,*0F
$GPGGA,223044.064,3732.776,N,12204.155,W,1,08,0.9,332.687,M,0.0,M,,*72
$GPRMC,223045.066,V,3732.782,N,12204.121,W,0.00,0.00,100916,,*04
$GPGGA,223045.066,3732.782,N,12204.121,W,1,08,0.9,333.632,M,0.0,M,,*76
$GPRMC,223046.068,V,3732.787,N,12204.088,W,0.00,0.00,100916,,*0E
$GPGGA,223046.068,3732.787,N,12204.088,W,1,08,0.9,334.474,M,0.0,M,,*7B
$GPRMC,223047.069,V,3732.793,N,12204.054,W,0.00,0.00,100916,,*0A
$GPGGA,223047.069,3732.793,N,12204.054,W,1,08,0.9,335.165,M,0.0,M,,*7B
$GPRMC,223048.064,V,3732.798,N,12204.021,W,0.00,0.00,100916,,*01
$GPGGA,223048.064,3732.798,N,12204.021,W,1,08,0.9,336.458,M,0.0,M,,*78
$GPRMC,223049.072,V,3732.803,N,12203.987,W,0.00,0.00,100916,,*08
$GPGGA,223049.072,3732.803,N,12203.987,W,1,08,0.9,336.983,M,0.0,M,,*7A
$GPRMC,223050.066,V,3732.807,N,12203.954,W,0.00,0.00,100916,,*0F
$GPGGA,223050.066,3732.807,N,12203.954,W,1,08,0.9,337.241,M,0.0,M,,*79
$GPRMC,223051.075,V,3732.812,N,12203.920,W,0.00,0.00,100916,,*0B
$GPGGA,223051.075,3732.812,N,12203.920,W,1,08,0.9,337.236,M,0.0,M,,*7D
$GPRMC,223052.077,V,3732.816,N,12203.886,W,0.00,0.00,100916,,*03
$GPGGA,223052.077,3732.816,N,12203.886,W,1,08,0.9,336.900,M,0.0,M,,*7A
$GPRMC,223053.087,V,3732.821,N,12203.853,W,0.00,0.00,100916,,*01
$GPGGA,223053.087,3732.821,N,12203.853,W,1,08,0.9,336.308,M,0.0,M,,*7A
$GPRMC,223054.097,V,3732.825,N,12203.819,W,0.00,0.00,100916,,*0D
$GPGGA,223054.097,3732.825,N,12203.819,W,1,08,0.9,336.537,M,0.0,M,,*7C
$GPRMC,223055.087,V,3732.829,N,12203.785,W,0.00,0.00,100916,,*0B
$GPGGA,223055.087,3732.829,N,12203.785,W,1,08,0.9,337.069,M,0.0,M,,*75
$GPRMC,223056.102,V,3732.832,N,12203.751,W,0.00,0.00,100916,,*07
$GPGGA,223056.102,3732.832,N,12203.751,W,1,08,0.9,337.124,M,0.0,M,,*71
$GPRMC,223057.077,V,3732.836,N,12203.717,W,0.00,0.00,100916,,*03
$GPGGA,223057.077,3732.836,N,12203.717,W,1,08,0.9,338.219,M,0.0,M,,*77
$GPRMC,223058.065,V,3732.839,N,12203.683,W,0.00,0.00,100916,,*0C
$GPGGA,223058.065,3732.839,N,12203.683,W,1,08,0.9,338.982,M,0.0,M,,*71
$GPRMC,223059.072,V,3732.842,N,12203.650,W,0.00,0.00,100916,,*09
$GPGGA,223059.072,3732.842,N,12203.650,W,1,08,0.9,339.884,M,0.0,M,,*72
$GPRMC,223100.076,V,3732.845,N,12203.616,W,0.00,0.00,100916,,*05
$GPGGA,223100.076,3732.845,N,12203.616,W,1,08,0.9,340.794,M,0.0,M,,*7E
$GPRMC,223101.087,V,3732.848,N,12203.583,W,0.00,0.00,100916,,*08
$GPGGA,223101.087,3732.848,N,12203.583,W,1,08,0.9,341.558,M,0.0,M,,*70
$GPRMC,223102.092,V,3732.851,N,12203.549,W,0.00,0.00,100916,,*01
$GPGGA,223102.092,3732.851,N,12203.549,W,1,08,0.9,342.204,M,0.0,M,,*74
$GPRMC,223103.088,V,3732.854,N,12203.516,W,0.00,0.00,100916,,*04
$GPGGA,223103.088,3732.854,N,12203.516,W,1,08,0.9,342.673,M,0.0,M,,*75
$GPRMC,223104.158,V,3732.857,N,12203.482,W,0.00,0.00,100916,,*00
$GPGGA,223104.158,3732.857,N,12203.482,W,1,08,0.9,342.781,M,0.0,M,,*7D
$GPRMC,223105.073,V,3732.859,N,12203.449,W,0.00,0.00,100916,,*00
$GPGGA,223105.073,3732.859,N,12203.449,W,1,08,0.9,343.240,M,0.0,M,,*74
$GPRMC,223106.073,V,3732.862,N,12203.415,W,0.00,0.00,100916,,*02
$GPGGA,223106.073,3732.862,N,12203.415,W,1,08,0.9,343.457,M,0.0,M,,*76
$GPRMC,223107.074,V,3732.864,N,12203.381,W,0.00,0.00,100916,,*08
$GPGGA,223107.074,3732.864,N,12203.381,W,1,08,0.9,343.232,M,0.0,M,,*79
$GPRMC,223108.073,V,3732.866,N,12203.347,W,0.00,0.00,100916,,*08
$GPGGA,223108.073,3732.866,N,12203.347,W,1,08,0.9,343.121,M,0.0,M,,*78
$GPRMC,223109.075,V,3732.869,N,12203.313,W,0.00,0.00,100916,,*01
$GPGGA,223109.075,3732.869,N,12203.313,W,1,08,0.9,343.291,M,0.0,M,,*79
$GPRMC,223110.074,V,3732.871,N,12203.279,W,0.00,0.00,100916,,*0C
$GPGGA,223110.074,3732.871,N,12203.279,W,1,08,0.9,342.155,M,0.0,M,,*7E
$GPRMC,223111.092,V,3732.873,N,12203.245,W,0.00,0.00,100916,,*08
$GPGGA,223111.092,3732.873,N,12203.245,W,1,08,0.9,340.878,M,0.0,M,,*7E
$GPRMC,223112.067,V,3732.875,N,12203.210,W,0.00,0.00,100916,,*07
$GPGGA,223112.067,3732.875,N,12203.210,W,1,08,0.9,340.120,M,0.0,M,,*75
$GPRMC,223113.072,V,3732.877,N,12203.175,W,0.00,0.00,100916,,*00
$GPGGA,223113.072,3732.877,N,12203.175,W,1,08,0.9,339.246,M,0.0,M,,*7F
$GPRMC,223114.073,V,3732.879,N,12203.140,W,0.00,0.00,100916,,*0E
$GPGGA,223114.073,3732.879,N,12203.140,W,1,08,0.9,338.097,M,0.0,M,,*7E
$GPRMC,223115.089,V,3732.882,N,12203.105,W,0.00,0.00,100916,,*0F
$GPGGA,223115.089,3732.882,N,12203.105,W,1,08,0.9,337.344,M,0.0,M,,*7D
$GPRMC,223116.089,V,3732.883,N,12203.070,W,0.00,0.00,100916,,*0E
$GPGGA,223116.089,3732.883,N,12203.070,W,1,08,0.9,336.360,M,0.0,M,,*7B
$GPRMC,223117.091,V,3732.885,N,12203.036,W,0.00,0.00,100916,,*02
$GPGGA,223117.091,3732.885,N,12203.036,W,1,08,0.9,335.659,M,0.0,M,,*7B
$GPRMC,223118.079,V,3732.888,N,12203.001,W,0.00,0.00,100916,,*02
$GPGGA,223118.079,3732.888,N,12203.001,W,1,08,0.9,334.363,M,0.0,M,,*76
$GPRMC,223119.069,V,3732.890,N,12202.966,W,0.00,0.00,100916,,*02
$GPGGA,223119.069,3732.890,N,12202.966,W,1,08,0.9,334.181,M,0.0,M,,*78
$GPRMC,223120.088,V,3732.892,N,12202.930,W,0.00,0.00,100916,,*06
$GPGGA,223120.088,3732.892,N,12202.930,W,1,08,0.9,333.611,M,0.0,M,,*75
$GPRMC,223121.146,V,3732.895,N,12202.895,W,0.00,0.00,100916,,*0D
$GPGGA,223121.146,3732.895,N,12202.895,W,1,08,0.9,332.906,M,0.0,M,,*76
$GPRMC,223122.088,V,3732.897,N,12202.861,W,0.00,0.00,100916,,*04
$GPGGA,223122.088,3732.897,N,12202.861,W,1,08,0.9,332.112,M,0.0,M,,*72
$GPRMC,223123.077,V,3732.900,N,12202.825,W,0.00,0.00,100916,,*0A
$GPGGA,223123.077,3732.900,N,12202.825,W,1,08,0.9,331.407,M,0.0,M,,*7E
$GPRMC,223124.077,V,3732.902,N,12202.790,W,0.00,0.00,100916,,*0E
$GPGGA,223124.077,3732.902,N,12202.790,W,1,08,0.9,331.081,M,0.0,M,,*70
$GPRMC,223125.088,V,3732.904,N,12202.755,W,0.00,0.00,100916,,*00
$GPGGA,223125.088,3732.904,N,12202.755,W,1,08,0.9,330.537,M,0.0,M,,*77
$GPRMC,223126.082,V,3732.907,N,12202.719,W,0.00,0.00,100916,,*02
$GPGGA,223126.082,3732.907,N,12202.719,W,1,08,0.9,329.874,M,0.0,M,,*77
$GPRMC,223127.102,V,3732.909,N,12202.684,W,0.00,0.00,100916,,*01
$GPGGA,223127.102,3732.909,N,12202.684,W,1,08,0.9,329.727,M,0.0,M,,*7D
$GPRMC,223128.088,V,3732.910,N,12202.649,W,0.00,0.00,100916,,*04
$GPGGA,223128.088,3732.910,N,12202.649,W,1,08,0.9,329.414,M,0.0,M,,*7B
$GPRMC,223129.074,V,3732.912,N,12202.614,W,0.00,0.00,100916,,*0C
$GPGGA,223129.074,3732.912,N,12202.614,W,1,08,0.9,329.148,M,0.0,M,,*7F
$GPRMC,223130.075,V,3732.914,N,12202.579,W,0.00,0.00,100916,,*0B
$GPGGA,223130.075,3732.914,N,12202.579,W,1,08,0.9,328.973,M,0.0,M,,*79
$GPRMC,223131.064,V,3732.916,N,12202.545,W,0.00,0.00,100916,,*07
$GPGGA,223131.064,3732.916,N,12202.545,W,1,08,0.9,329.030,M,0.0,M,,*7A
$GPRMC,223132.071,V,3732.918,N,12202.510,W,0.00,0.00,100916,,*0E
$GPGGA,223132.071,3732.918,N,12202.510,W,1,08,0.9,329.397,M,0.0,M,,*7D
$GPRMC,223133.063,V,3732.920,N,12202.476,W,0.00,0.00,100916,,*06
$GPGGA,223133.063,3732.920,N,12202.476,W,1,08,0.9,329.943,M,0.0,M,,*76
$GPRMC,223134.072,V,3732.923,N,12202.441,W,0.00,0.00,100916,,*06
$GPGGA,223134.072,3732.923,N,12202.441,W,1,08,0.9,329.909,M,0.0,M,,*78
$GPRMC,223135.077,V,3732.925,N,12202.407,W,0.00,0.00,100916,,*06
$GPGGA,223135.077,3732.925,N,12202.407,W,1,08,0.9,330.065,M,0.0,M,,*73
$GPRMC,223136.077,V,3732.927,N,12202.373,W,0.00,0.00,100916,,*03
$GPGGA,223136.077,3732.927,N,12202.373,W,1,08,0.9,329.944,M,0.0,M,,*74
$GPRMC,223137.086,V,3732.929,N,12202.339,W,0.00,0.00,100916,,*0C
$GPGGA,223137.086,3732.929,N,12202.339,W,1,08,0.9,329.478,M,0.0,M,,*79
$GPRMC,223138.090,V,3732.931,N,12202.305,W,0.00,0.00,100916,,*02
$GPGGA,223138.090,3732.931,N,12202.305,W,1,08,0.9,329.319,M,0.0,M,,*77
$GPRMC,223139.086,V,3732.933,N,12202.271,W,0.00,0.00,100916,,*04
$GPGGA,223139.086,3732.933,N,12202.271,W,1,08,0.9,328.518,M,0.0,M,,*77
$GPRMC,223140.084,V,3732.935,N,12202.237,W,0.00,0.00,100916,,*0C
$GPGGA,223140.084,3732.935,N,12202.237,W,1,08,0.9,328.210,M,0.0,M,,*70
$GPRMC,223141.083,V,3732.937,N,12202.203,W,0.00,0.00,100916,,*0F
$GPGGA,223141.083,3732.937,N,12202.203,W,1,08,0.9,328.229,M,0.0,M,,*79
$GPRMC,223142.086,V,3732.938,N,12202.168,W,0.00,0.00,100916,,*08
$GPGGA,223142.086,3732.938,N,12202.168,W,1,08,0.9,327.898,M,0.0,M,,*71
$GPRMC,223143.083,V,3732.940,N,12202.134,W,0.00,0.00,100916,,*0A
$GPGGA,223143.083,3732.940,N,12202.134,W,1,08,0.9,327.061,M,0.0,M,,*7D
$GPRMC,223144.078,V,3732.943,N,12202.101,W,0.00,0.00,100916,,*0C
$GPGGA,223144.078,3732.943,N,12202.101,W,1,08,0.9,326.375,M,0.0,M,,*7C
$GPRMC,223145.087,V,3732.944,N,12202.067,W,0.00,0.00,100916,,*0B
$GPGGA,223145.087,3732.944,N,12202.067,W,1,08,0.9,325.393,M,0.0,M,,*70
$GPRMC,223146.075,V,3732.947,N,12202.032,W,0.00,0.00,100916,,*06
$GPGGA,223146.075,3732.947,N,12202.032,W,1,08,0.9,324.179,M,0.0,M,,*7A
$GPRMC,223147.093,V,3732.949,N,12201.998,W,0.00,0.00,100916,,*0B
$GPGGA,223147.093,3732.949,N,12201.998,W,1,08,0.9,322.237,M,0.0,M,,*78
$GPRMC,223148.073,V,3732.951,N,12201.963,W,0.00,0.00,100916,,*07
$GPGGA,223148.073,3732.951,N,12201.963,W,1,08,0.9,321.611,M,0.0,M,,*77
$GPRMC,223149.079,V,3732.954,N,12201.929,W,0.00,0.00,100916,,*07
$GPGGA,223149.079,3732.954,N,12201.929,W,1,08,0.9,320.851,M,0.0,M,,*7C
$GPRMC,223150.075,V,3732.956,N,12201.894,W,0.00,0.00,100916,,*06
$GPGGA,223150.075,3732.956,N,12201.894,W,1,08,0.9,319.437,M,0.0,M,,*7B
$GPRMC,223151.085,V,3732.958,N,12201.858,W,0.00,0.00,100916,,*06
$GPGGA,223151.085,3732.958,N,12201.858,W,1,08,0.9,317.532,M,0.0,M,,*71
$GPRMC,223152.078,V,3732.960,N,12201.823,W,0.00,0.00,100916,,*00
$GPGGA,223152.078,3732.960,N,12201.823,W,1,08,0.9,316.059,M,0.0,M,,*7E
$GPRMC,223153.071,V,3732.963,N,12201.787,W,0.00,0.00,100916,,*0A
$GPGGA,223153.071,3732.963,N,12201.787,W,1,08,0.9,313.494,M,0.0,M,,*74
$GPRMC,223154.096,V,3732.965,N,12201.752,W,0.00,0.00,100916,,*0A
$GPGGA,223154.096,3732.965,N,12201.752,W,1,08,0.9,311.205,M,0.0,M,,*78
$GPRMC,223155.096,V,3732.969,N,12201.716,W,0.00,0.00,100916,,*07
$GPGGA,223155.096,3732.969,N,12201.716,W,1,08,0.9,309.345,M,0.0,M,,*79
$GPRMC,223156.096,V,3732.972,N,12201.680,W,0.00,0.00,100916,,*00
$GPGGA,223156.096,3732.972,N,12201.680,W,1,08,0.9,308.061,M,0.0,M,,*7A
$GPRMC,223157.092,V,3732.975,N,12201.643,W,0.00,0.00,100916,,*0D
$GPGGA,223157.092,3732.975,N,12201.643,W,1,08,0.9,307.090,M,0.0,M,,*76
$GPRMC,223158.096,V,3732.978,N,12201.607,W,0.00,0.00,100916,,*0B
$GPGGA,223158.096,3732.978,N,12201.607,W,1,08,0.9,306.902,M,0.0,M,,*73
$GPRMC,223159.085,V,3732.982,N,12201.572,W,0.00,0.00,100916,,*0C
$GPGGA,223159.085,3732.982,N,12201.572,W,1,08,0.9,307.087,M,0.0,M,,*71
$GPRMC,223200.082,V,3732.985,N,12201.536,W,0.00,0.00,100916,,*03
$GPGGA,223200.082,3732.985,N,12201.536,W,1,08,0.9,307.414,M,0.0,M,,*70
$GPRMC,223201.085,V,3732.989,N,12201.500,W,0.00,0.00,100916,,*0C
$GPGGA,223201.085,3732.989,N,12201.500,W,1,08,0.9,307.702,M,0.0,M,,*7B
$GPRMC,223202.089,V,3732.992,N,12201.465,W,0.00,0.00,100916,,*0B
$GPGGA,223202.089,3732.992,N,12201.465,W,1,08,0.9,308.096,M,0.0,M,,*79
$GPRMC,223203.105,V,3732.996,N,12201.430,W,0.00,0.00,100916,,*0B
$GPGGA,223203.105,3732.996,N,12201.430,W,1,08,0.9,308.059,M,0.0,M,,*7A
$GPRMC,223204.097,V,3732.999,N,12201.394,W,0.00,0.00,100916,,*00
$GPGGA,223204.097,3732.999,N,12201.394,W,1,08,0.9,307.753,M,0.0,M,,*73
$GPRMC,223205.089,V,3733.003,N,12201.359,W,0.00,0.00,100916,,*04
$GPGGA,223205.089,3733.003,N,12201.359,W,1,08,0.9,307.753,M,0.0,M,,*77
$GPRMC,223206.085,V,3733.007,N,12201.324,W,0.00,0.00,100916,,*05
$GPGGA,223206.085,3733.007,N,12201.324,W,1,08,0.9,306.826,M,0.0,M,,*7A
$GPRMC,223207.097,V,3733.010,N,12201.289,W,0.00,0.00,100916,,*07
$GPGGA,223207.097,3733.010,N,12201.289,W,1,08,0.9,305.538,M,0.0,M,,*79
$GPRMC,223208.091,V,3733.014,N,12201.253,W,0.00,0.00,100916,,*0D
$GPGGA,223208.091,3733.014,N,12201.253,W,1,08,0.9,304.604,M,0.0,M,,*7E
$GPRMC,223209.088,V,3733.018,N,12201.217,W,0.00,0.00,100916,,*08
$GPGGA,223209.088,3733.018,N,12201.217,W,1,08,0.9,302.934,M,0.0,M,,*71
$GPRMC,223210.097,V,3733.022,N,12201.181,W,0.00,0.00,100916,,*0B
$GPGGA,223210.097,3733.022,N,12201.181,W,1,08,0.9,300.981,M,0.0,M,,*7E
$GPRMC,223211.076,V,3733.026,N,12201.145,W,0.00,0.00,100916,,*09
$GPGGA,223211.076,3733.026,N,12201.145,W,1,08,0.9,299.697,M,0.0,M,,*75
$GPRMC,223212.084,V,3733.030,N,12201.109,W,0.00,0.00,100916,,*08
$GPGGA,223212.084,3733.030,N,12201.109,W,1,08,0.9,298.230,M,0.0,M,,*7C
$GPRMC,223213.077,V,3733.034,N,12201.073,W,0.00,0.00,100916,,*0D
$GPGGA,223213.077,3733.034,N,12201.073,W,1,08,0.9,296.568,M,0.0,M,,*7D
$GPRMC,223214.073,V,3733.038,N,12201.037,W,0.00,0.00,100916,,*02
$GPGGA,223214.073,3733.038,N,12201.037,W,1,08,0.9,294.014,M,0.0,M,,*7E
$GPRMC,223215.067,V,3733.043,N,12201.000,W,0.00,0.00,100916,,*0E
$GPGGA,223215.067,3733.043,N,12201.000,W,1,08,0.9,292.029,M,0.0,M,,*7A
$GPRMC,223216.063,V,3733.047,N,12200.964,W,0.00,0.00,100916,,*07
$GPGGA,223216.063,3733.047,N,12200.964,W,1,08,0.9,290.672,M,0.0,M,,*79
$GPRMC,223217.067,V,3733.051,N,12200.928,W,0.00,0.00,100916,,*0D
$GPGGA,223217.067,3733.051,N,12200.928,W,1,08,0.9,289.242,M,0.0,M,,*7C
$GPRMC,223218.067,V,3733.056,N,12200.892,W,0.00,0.00,100916,,*05
$GPGGA,223218.067,3733.056,N,12200.892,W,1,08,0.9,288.698,M,0.0,M,,*76
$GPRMC,223219.075,V,3733.061,N,12200.856,W,0.00,0.00,100916,,*0B
$GPGGA,223219.075,3733.061,N,12200.856,W,1,08,0.9,288.352,M,0.0,M,,*7B
$GPRMC,223220.066,V,3733.065,N,12200.820,W,0.00,0.00,100916,,*06
$GPGGA,223220.066,3733.065,N,12200.820,W,1,08,0.9,287.652,M,0.0,M,,*7C
$GPRMC,223221.078,V,3733.070,N,12200.784,W,0.00,0.00,100916,,*0D
$GPGGA,223221.078,3733.070,N,12200.784,W,1,08,0.9,287.105,M,0.0,M,,*72
$GPRMC,223222.082,V,3733.074,N,12200.748,W,0.00,0.00,100916,,*0F
$GPGGA,223222.082,3733.074,N,12200.748,W,1,08,0.9,286.567,M,0.0,M,,*71
$GPRMC,223223.089,V,3733.078,N,12200.711,W,0.00,0.00,100916,,*05
$GPGGA,223223.089,3733.078,N,12200.711,W,1,08,0.9,285.529,M,0.0,M,,*72
$GPRMC,223224.083,V,3733.083,N,12200.675,W,0.00,0.00,100916,,*0F
$GPGGA,223224.083,3733.083,N,12200.675,W,1,08,0.9,285.253,M,0.0,M,,*72
$GPRMC,223225.084,V,3733.087,N,12200.639,W,0.00,0.00,100916,,*05
$GPGGA,223225.084,3733.087,N,12200.639,W,1,08,0.9,284.492,M,0.0,M,,*72
$GPRMC,223226.073,V,3733.091,N,12200.603,W,0.00,0.00,100916,,*00
$GPGGA,223226.073,3733.091,N,12200.603,W,1,08,0.9,283.480,M,0.0,M,,*73
$GPRMC,223227.082,V,3733.095,N,12200.567,W,0.00,0.00,100916,,*0A
$GPGGA,223227.082,3733.095,N,12200.567,W,1,08,0.9,282.832,M,0.0,M,,*7D
$GPRMC,223228.100,V,3733.099,N,12200.531,W,0.00,0.00,100916,,*01
$GPGGA,223228.100,3733.099,N,12200.531,W,1,08,0.9,282.869,M,0.0,M,,*78
$GPRMC,223229.078,V,3733.103,N,12200.496,W,0.00,0.00,100916,,*00
$GPGGA,223229.078,3733.103,N,12200.496,W,1,08,0.9,282.939,M,0.0,M,,*7D
$GPRMC,223230.076,V,3733.107,N,12200.460,W,0.00,0.00,100916,,*0B
$GPGGA,223230.076,3733.107,N,12200.460,W,1,08,0.9,283.221,M,0.0,M,,*75
$GPRMC,223231.085,V,3733.111,N,12200.424,W,0.00,0.00,100916,,*01
$GPGGA,223231.085,3733.111,N,12200.424,W,1,08,0.9,282.954,M,0.0,M,,*77
$GPRMC,223232.076,V,3733.114,N,12200.388,W,0.00,0.00,100916,,*0A
$GPGGA,223232.076,3733.114,N,12200.388,W,1,08,0.9,283.045,M,0.0,M,,*74
$GPRMC,223233.084,V,3733.118,N,12200.353,W,0.00,0.00,100916,,*0C
$GPGGA,223233.084,3733.118,N,12200.353,W,1,08,0.9,282.382,M,0.0,M,,*7B
$GPRMC,223234.077,V,3733.121,N,12200.317,W,0.00,0.00,100916,,*0D
$GPGGA,223234.077,3733.121,N,12200.317,W,1,08,0.9,281.964,M,0.0,M,,*7B
$GPRMC,223235.083,V,3733.123,N,12200.281,W,0.00,0.00,100916,,*0B
$GPGGA,223235.083,3733.123,N,12200.281,W,1,08,0.9,282.726,M,0.0,M,,*76
$GPRMC,223236.074,V,3733.125,N,12200.246,W,0.00,0.00,100916,,*0D
$GPGGA,223236.074,3733.125,N,12200.246,W,1,08,0.9,282.568,M,0.0,M,,*78
$GPRMC,223237.074,V,3733.128,N,12200.210,W,0.00,0.00,100916,,*02
$GPGGA,223237.074,3733.128,N,12200.210,W,1,08,0.9,282.973,M,0.0,M,,*71
$GPRMC,223238.071,V,3733.130,N,12200.175,W,0.00,0.00,100916,,*01
$GPGGA,223238.071,3733.130,N,12200.175,W,1,08,0.9,285.413,M,0.0,M,,*7E
$GPRMC,223239.072,V,3733.132,N,12200.141,W,0.00,0.00,100916,,*06
$GPGGA,223239.072,3733.132,N,12200.141,W,1,08,0.9,289.471,M,0.0,M,,*71
$GPRMC,223240.074,V,3733.134,N,12200.107,W,0.00,0.00,100916,,*0A
$GPGGA,223240.074,3733.134,N,12200.107,W,1,08,0.9,293.050,M,0.0,M,,*71
$GPRMC,223241.077,V,3733.136,N,12200.073,W,0.00,0.00,100916,,*08
$GPGGA,223241.077,3733.136,N,12200.073,W,1,08,0.9,297.177,M,0.0,M,,*73
$GPRMC,223242.074,V,3733.138,N,12200.040,W,0.00,0.00,100916,,*06
$GPGGA,223242.074,3733.138,N,12200.040,W,1,08,0.9,301.108,M,0.0,M,,*7B
$GPRMC,223243.085,V,3733.140,N,12200.007,W,0.00,0.00,100916,,*05
$GPGGA,223243.085,3733.140,N,12200.007,W,1,08,0.9,305.014,M,0.0,M,,*70
$GPRMC,223244.079,V,3733.142,N,12159.975,W,0.00,0.00,100916,,*00
$GPGGA,223244.079,3733.142,N,12159.975,W,1,08,0.9,308.670,M,0.0,M,,*7C
$GPRMC,223245.072,V,3733.144,N,12159.944,W,0.00,0.00,100916,,*0E
$GPGGA,223245.072,3733.144,N,12159.944,W,1,08,0.9,313.659,M,0.0,M,,*73
$GPRMC,223246.069,V,3733.145,N,12159.914,W,0.00,0.00,100916,,*03
$GPGGA,223246.069,3733.145,N,12159.914,W,1,08,0.9,318.991,M,0.0,M,,*7E
$GPRMC,223247.065,V,3733.147,N,12159.884,W,0.00,0.00,100916,,*04
$GPGGA,223247.065,3733.147,N,12159.884,W,1,08,0.9,325.013,M,0.0,M,,*74
$GPRMC,223248.073,V,3733.148,N,12159.855,W,0.00,0.00,100916,,*0F
$GPGGA,223248.073,3733.148,N,12159.855,W,1,08,0.9,332.630,M,0.0,M,,*7E
$GPRMC,223249.069,V,3733.150,N,12159.827,W,0.00,0.00,100916,,*09
$GPGGA,223249.069,3733.150,N,12159.827,W,1,08,0.9,339.973,M,0.0,M,,*7B
$GPRMC,223250.070,V,3733.152,N,12159.799,W,0.00,0.00,100916,,*01
$GPGGA,223250.070,3733.152,N,12159.799,W,1,08,0.9,345.932,M,0.0,M,,*7D
$GPRMC,223251.063,V,3733.153,N,12159.771,W,0.00,0.00,100916,,*05
$GPGGA,223251.063,3733.153,N,12159.771,W,1,08,0.9,352.365,M,0.0,M,,*77
$GPRMC,223252.070,V,3733.154,N,12159.743,W,0.00,0.00,100916,,*02
$GPGGA,223252.070,3733.154,N,12159.743,W,1,08,0.9,358.057,M,0.0,M,,*78
$GPRMC,223253.082,V,3733.155,N,12159.716,W,0.00,0.00,100916,,*0F
$GPGGA,223253.082,3733.155,N,12159.716,W,1,08,0.9,362.912,M,0.0,M,,*74
$GPRMC,223254.090,V,3733.156,N,12159.689,W,0.00,0.00,100916,,*0F
$GPGGA,223254.090,3733.156,N,12159.689,W,1,08,0.9,367.459,M,0.0,M,,*73
$GPRMC,223255.081,V,3733.157,N,12159.662,W,0.00,0.00,100916,,*0A
$GPGGA,223255.081,3733.157,N,12159.662,W,1,08,0.9,371.586,M,0.0,M,,*72
$GPRMC,223256.075,V,3733.158,N,12159.635,W,0.00,0.00,100916,,*0F
$GPGGA,223256.075,3733.158,N,12159.635,W,1,08,0.9,375.796,M,0.0,M,,*70
$GPRMC,223257.074,V,3733.159,N,12159.608,W,0.00,0.00,100916,,*00
$GPGGA,223257.074,3733.159,N,12159.608,W,1,08,0.9,379.745,M,0.0,M,,*7D
$GPRMC,223258.085,V,3733.160,N,12159.581,W,0.00,0.00,100916,,*09
$GPGGA,223258.085,3733.160,N,12159.581,W,1,08,0.9,383.319,M,0.0,M,,*7C
$GPRMC,223259.099,V,3733.161,N,12159.554,W,0.00,0.00,100916,,*0C
$GPGGA,223259.099,3733.161,N,12159.554,W,1,08,0.9,386.870,M,0.0,M,,*78
$GPRMC,223300.082,V,3733.162,N,12159.527,W,0.00,0.00,100916,,*0C
$GPGGA,223300.082,3733.162,N,12159.527,W,1,08,0.9,390.619,M,0.0,M,,*7E
$GPRMC,223301.072,V,3733.164,N,12159.500,W,0.00,0.00,100916,,*01
$GPGGA,223301.072,3733.164,N,12159.500,W,1,08,0.9,394.430,M,0.0,M,,*7E
$GPRMC,223302.075,V,3733.165,N,12159.472,W,0.00,0.00,100916,,*00
$GPGGA,223302.075,3733.165,N,12159.472,W,1,08,0.9,397.562,M,0.0,M,,*7A
$GPRMC,223303.075,V,3733.167,N,12159.445,W,0.00,0.00,100916,,*07
$GPGGA,223303.075,3733.167,N,12159.445,W,1,08,0.9,401.229,M,0.0,M,,*7D
$GPRMC,223304.073,V,3733.169,N,12159.417,W,0.00,0.00,100916,,*0F
$GPGGA,223304.073,3733.169,N,12159.417,W,1,08,0.9,404.371,M,0.0,M,,*7C
$GPRMC,223305.081,V,3733.170,N,12159.389,W,0.00,0.00,100916,,*0B
$GPGGA,223305.081,3733.170,N,12159.389,W,1,08,0.9,407.606,M,0.0,M,,*7E
$GPRMC,223306.084,V,3733.172,N,12159.361,W,0.00,0.00,100916,,*09
$GPGGA,223306.084,3733.172,N,12159.361,W,1,08,0.9,410.390,M,0.0,M,,*70
$GPRMC,223307.085,V,3733.174,N,12159.333,W,0.00,0.00,100916,,*08
$GPGGA,223307.085,3733.174,N,12159.333,W,1,08,0.9,412.813,M,0.0,M,,*73
$GPRMC,223308.083,V,3733.176,N,12159.305,W,0.00,0.00,100916,,*06
$GPGGA,223308.083,3733.176,N,12159.305,W,1,08,0.9,415.806,M,0.0,M,,*7E
$GPRMC,223309.063,V,3733.178,N,12159.277,W,0.00,0.00,100916,,*03
$GPGGA,223309.063,3733.178,N,12159.277,W,1,08,0.9,419.483,M,0.0,M,,*76
$GPRMC,223310.076,V,3733.180,N,12159.249,W,0.00,0.00,100916,,*05
$GPGGA,223310.076,3733.180,N,12159.249,W,1,08,0.9,423.814,M,0.0,M,,*7B
$GPRMC,223311.322,V,3733.183,N,12159.222,W,0.00,0.00,100916,,*08
$GPGGA,223311.322,3733.183,N,12159.222,W,1,08,0.9,428.377,M,0.0,M,,*73
$GPRMC,223312.106,V,3733.185,N,12159.194,W,0.00,0.00,100916,,*07
$GPGGA,223312.106,3733.185,N,12159.194,W,1,08,0.9,432.905,M,0.0,M,,*78
$GPRMC,223313.099,V,3733.187,N,12159.167,W,0.00,0.00,100916,,*0F
$GPGGA,223313.099,3733.187,N,12159.167,W,1,08,0.9,438.090,M,0.0,M,,*7F
$GPRMC,223314.081,V,3733.189,N,12159.140,W,0.00,0.00,100916,,*0A
$GPGGA,223314.081,3733.189,N,12159.140,W,1,08,0.9,442.976,M,0.0,M,,*76
$GPRMC,223315.080,V,3733.192,N,12159.113,W,0.00,0.00,100916,,*06
$GPGGA,223315.080,3733.192,N,12159.113,W,1,08,0.9,448.262,M,0.0,M,,*7E
$GPRMC,223316.081,V,3733.194,N,12159.086,W,0.00,0.00,100916,,*0F
$GPGGA,223316.081,3733.194,N,12159.086,W,1,08,0.9,453.062,M,0.0,M,,*7F
$GPRMC,223317.074,V,3733.196,N,12159.058,W,0.00,0.00,100916,,*05
$GPGGA,223317.074,3733.196,N,12159.058,W,1,08,0.9,457.105,M,0.0,M,,*71
$GPRMC,223318.082,V,3733.199,N,12159.031,W,0.00,0.00,100916,,*03
$GPGGA,223318.082,3733.199,N,12159.031,W,1,08,0.9,461.215,M,0.0,M,,*70
$GPRMC,223319.087,V,3733.201,N,12159.003,W,0.00,0.00,100916,,*04
$GPGGA,223319.087,3733.201,N,12159.003,W,1,08,0.9,464.558,M,0.0,M,,*7C
$GPRMC,223320.099,V,3733.204,N,12158.975,W,0.00,0.00,100916,,*0D
$GPGGA,223320.099,3733.204,N,12158.975,W,1,08,0.9,468.233,M,0.0,M,,*73
$GPRMC,223321.084,V,3733.207,N,12158.947,W,0.00,0.00,100916,,*02
$GPGGA,223321.084,3733.207,N,12158.947,W,1,08,0.9,470.920,M,0.0,M,,*7C
$GPRMC,223322.083,V,3733.209,N,12158.919,W,0.00,0.00,100916,,*03
$GPGGA,223322.083,3733.209,N,12158.919,W,1,08,0.9,473.537,M,0.0,M,,*74
$GPRMC,223323.078,V,3733.212,N,12158.889,W,0.00,0.00,100916,,*04
$GPGGA,223323.078,3733.212,N,12158.889,W,1,08,0.9,475.555,M,0.0,M,,*71
$GPRMC,223324.091,V,3733.215,N,12158.861,W,0.00,0.00,100916,,*05
$GPGGA,223324.091,3733.215,N,12158.861,W,1,08,0.9,477.713,M,0.0,M,,*72
$GPRMC,223325.091,V,3733.219,N,12158.832,W,0.00,0.00,100916,,*0E
$GPGGA,223325.091,3733.219,N,12158.832,W,1,08,0.9,480.249,M,0.0,M,,*7B
$GPRMC,223326.086,V,3733.222,N,12158.802,W,0.00,0.00,100916,,*00
$GPGGA,223326.086,3733.222,N,12158.802,W,1,08,0.9,482.548,M,0.0,M,,*71
$GPRMC,223327.100,V,3733.226,N,12158.773,W,0.00,0.00,100916,,*03
$GPGGA,223327.100,3733.226,N,12158.773,W,1,08,0.9,485.075,M,0.0,M,,*7E
$GPRMC,223328.082,V,3733.230,N,12158.743,W,0.00,0.00,100916,,*03
$GPGGA,223328.082,3733.230,N,12158.743,W,1,08,0.9,487.099,M,0.0,M,,*7E
$GPRMC,223329.067,V,3733.233,N,12158.713,W,0.00,0.00,100916,,*0F
$GPGGA,223329.067,3733.233,N,12158.713,W,1,08,0.9,489.813,M,0.0,M,,*76
$GPRMC,223330.068,V,3733.237,N,12158.683,W,0.00,0.00,100916,,*04
$GPGGA,223330.068,3733.237,N,12158.683,W,1,08,0.9,492.411,M,0.0,M,,*79
